API,Name,Well Type - Aliased,Status - Aliased,Wellbore Profile - Aliased,First Production Date,CUM Oil,CUM Gas,CUM Water,Latitude,Longitude,Lateral Length,Spud Date
42-301-32426-0000,THRESHER 55-1-12 UNIT A 15H,PERMIT,OPEN SHUT IN,HORIZONTAL,4/1/2018,9091,13875,0,31.98139572,-103.7101746,9087.05957,1/31/2018
42-301-32427-0000,THRESHER 55-1-12 UNIT A 16H,OIL,Active,HORIZONTAL,4/1/2018,9091,13875,0,31.98139381,-103.710083,9079.295898,2/11/2018
42-301-32937-0000,UNIVERSITY 20 PW UNIT 2003H,OIL,Active,HORIZONTAL,4/1/2018,833113,988451,0,31.68688774,-103.3352966,8038,12/18/2017
42-301-32973-0000,WAR ADMIRAL 28-4 UNIT D 1H 1H,OIL,Active,HORIZONTAL,9/1/2018,228666,318442,0,31.84419441,-103.3725891,11127.96973,7/12/2018
42-301-32972-0000,GINGER 29 2H,OIL,Active,HORIZONTAL,6/1/2018,38844,94464,420032,31.77046585,-103.4829559,5399.687012,4/19/2018
42-301-33010-0000,RAYMORE 1-46 STATE UNIT 4 1H,OIL,Active,HORIZONTAL,8/1/2018,45906,85056,279230,31.6721344,-103.4922333,5411.445801,5/16/2018
42-301-33119-0000,ST. LUCIA 76 2833 21H,OIL,Active,HORIZONTAL,11/1/2018,194647,261047,504173,31.94273186,-103.5596695,10957.94727,12/5/2017
42-301-33150-0000,ST. LUCIA 76 2833 13H,OIL,Active,HORIZONTAL,5/1/2018,57395.25,289474,153608,31.94212914,-103.5628357,10779.98242,3/9/2018
42-301-33149-0000,NOAH BRUNSON B UNIT 4H,OIL,Active,HORIZONTAL,7/1/2018,159909,269781,362410,31.97447777,-103.4637833,9876.291992,12/21/2017
42-301-33121-0000,ANGELINA 55-2-29 LOV 1D,INJECTION,Active,DIRECTIONAL,,,,,31.81368446,-103.7740402,546,12/23/2017
42-301-33146-0000,NOAH BRUNSON A UNIT 4H,OIL,Active,HORIZONTAL,7/1/2018,148659,258800,342508,31.97317314,-103.468544,10276.7168,1/5/2018
42-301-33147-0000,NOAH BRUNSON A UNIT 5H,OIL,Active,HORIZONTAL,7/1/2018,177990,301913,402650,31.97320366,-103.4684448,10090.79297,1/4/2018
42-301-33148-0000,NOAH BRUNSON B UNIT 3H,OIL,Active,HORIZONTAL,7/1/2018,200798,328657,552399,31.97450829,-103.4636765,9674.533203,12/19/2017
42-301-33120-0000,ST. LUCIA 76 2833 12H,OIL,Active,HORIZONTAL,12/1/2018,148976,194369,396975,31.94273186,-103.5597687,10964.59863,12/5/2017
42-301-33145-0000,NOAH BRUNSON A UNIT 3H,OIL,Active,HORIZONTAL,7/1/2018,187512,336008,423948,31.97314262,-103.4686584,10495.35059,1/7/2018
42-301-33118-0000,ST. LUCIA 76 2833 31H,OIL,Active,HORIZONTAL,2/1/2019,116429,195897,1488868,31.9426136,-103.5591202,10957.95605,12/28/2017
42-301-33165-0000,GOODNIGHT UNIT 2H,OIL,Active,HORIZONTAL,5/1/2018,259996,517631,658605,31.91130066,-103.5206299,9954.55957,1/24/2018
42-301-33168-0000,GOODNIGHT UNIT 5H,OIL,Active,HORIZONTAL,6/1/2018,349164,660500.7,407932,31.91129684,-103.5163956,9961.183594,1/16/2018
42-301-33265-0000,WRANGLER A UNIT 2H,PERMIT,Approved Permit,HORIZONTAL,,,,,31.91369629,-103.5161438,9819.929688,11/9/2018
42-301-33262-0000,WRANGLER A UNIT 1H,CANCELLED PERMIT,Approved Permit,HORIZONTAL,,,,,31.91369629,-103.5160294,9825.00293,11/30/2018
42-301-33164-0000,GOODNIGHT UNIT 1H,OIL,Active,HORIZONTAL,5/1/2018,198637,360667,639209,31.9111824,-103.5202789,9957.366211,1/24/2018
42-301-33357-0000,INVICTUS 29-48 1H 1H,PERMIT,Approved Permit,HORIZONTAL,1/1/2019,42063,62617,0,31.73635101,-103.3853836,4790.977539,2/9/2018
42-301-33353-0000,UNIVERSITY 19 PW UNIT 1903H,OIL,Active,HORIZONTAL,5/1/2018,42407,99777,215904,31.67349243,-103.3946152,11368.58105,1/6/2018
42-301-33364-0000,INVICTUS 29-48 3H 3H,PERMIT,Approved Permit,HORIZONTAL,1/1/2019,47171,69936,0,31.73629951,-103.3855667,4845.987793,12/15/2017
42-301-33356-0000,UNIVERSITY 19 PW UNIT,OIL,Active,HORIZONTAL,5/1/2018,181443,207889,961684,31.67354202,-103.3945923,9347.086914,1/10/2018
42-301-33376-0000,SEQUOIA 55-1-14 UNIT 3H 1H,PERMIT,Approved Permit,HORIZONTAL,1/1/2019,18410,57685,0,31.95744514,-103.7235565,8314.473633,11/23/2018
42-301-33443-0000,LUDEMAN I WC 1411H,PERMIT,Active,HORIZONTAL,6/1/2018,76889,116179.625,765743,31.931633,-103.4269638,7274.502441,1/1/2018
42-301-33400-0000,APOLLO 7 8H,PERMIT,Active,HORIZONTAL,12/1/2018,89653,233008,0,31.9996109,-103.6427078,5122.598633,5/27/2018
42-301-33442-0000,LUDEMAN I WC 1410H,OIL,Active,HORIZONTAL,6/1/2018,144450.469,241759.422,820609,31.93166542,-103.4268417,7267.532227,12/30/2017
42-301-33405-0000,JONES SWD 1,INJECTION,Active,VERTICAL,,,,,31.77903366,-103.6327744,,5/11/2018
42-301-33398-0000,APOLLO 7 6H,PERMIT,Active,HORIZONTAL,12/1/2018,98828,259080,0,31.99961472,-103.6409912,5113.549316,5/29/2018
42-301-33431-0000,COTTONWOOD 55-1-14 UNIT 2HR,OIL,Active,HORIZONTAL,3/1/2018,183799,918513,1688473,31.95742035,-103.7291641,8334.335938,12/1/2017
42-301-33462-0000,YMC 9 2H,OIL,Active,HORIZONTAL,9/1/2018,87376,499813,411598,31.97031975,-103.8684921,5340.688477,1/14/2018
42-301-33399-0000,APOLLO 7 7H,PERMIT,Active,HORIZONTAL,12/1/2018,88333,241734,0,31.9996109,-103.6425934,5110.911621,5/25/2018
42-301-33397-0000,APOLLO 7 5H,PERMIT,Active,HORIZONTAL,12/1/2018,76652,209883,0,31.99961472,-103.6408768,5119.667969,8/31/2018
42-301-33481-0000,MENTONE BRINE WELL 1,STORAGE,Active,VERTICAL,,,,,31.73611259,-103.5513763,,2/7/2018
42-301-33492-0000,CHINOOK 55-1-7 UNIT 2H,PERMIT,Active,HORIZONTAL,,,,,31.97754097,-103.7943573,7704.328125,5/12/2018
42-301-33521-0000,BONNETHEAD 53-2-15 LOV 1H,PERMIT,Active,HORIZONTAL,10/1/2018,47622,95494,151200,31.85216713,-103.5344772,4550.721191,7/9/2018
42-301-33491-0000,CYCLONE 54-2-15 UNIT 1H,OIL,Active,HORIZONTAL,7/1/2018,71381,311084,801403,31.85304451,-103.6406174,7529.925293,5/12/2018
42-301-33564-0000,STINGRAY 53-2-25 LOV UNIT 2H,PERMIT,Active,HORIZONTAL,,,,,31.81126785,-103.5013962,4714.466309,3/28/2018
42-301-33520-0000,VENETIAN WAY 55-2-39 1H,PERMIT,Active,HORIZONTAL,,,,,31.78245926,-103.7534332,4854.874023,7/9/2018
42-301-33531-0000,MURUS 55-2-30 LOV UNIT SW 1H,OIL,Active,HORIZONTAL,6/1/2018,117505,444012,137861,31.81779671,-103.801445,7789.063965,2/11/2018
42-301-33605-0000,WHEAT TRUST C27-4 LOV 2H,OIL,Active,HORIZONTAL,,,,,31.7403717,-103.4946747,4156.487305,3/28/2018
42-301-33563-0000,STINGRAY 53-2-25 LOV UNIT 1H,PERMIT,Active,HORIZONTAL,,,,,31.8112793,-103.5014572,4788.987305,4/4/2018
42-301-33615-0000,RUDD DRAW 26-21 2H,PERMIT,Active,HORIZONTAL,1/1/2019,172729,334240,766071,31.85012436,-103.4653549,8346.523438,4/11/2018
42-301-33565-0000,STINGRAY 53-2-25 LOV UNIT 3H,PERMIT,Active,HORIZONTAL,,,,,31.81125832,-103.5013351,4722.244141,3/28/2018
42-301-33580-0000,BOXWOOD 55-1-12 UNIT 2H,PERMIT,Approved Permit,HORIZONTAL,,,,,31.97813988,-103.7036896,7923.862793,1/4/2019
42-301-33581-0000,BOXWOOD 55-1-12 UNIT 3H,PERMIT,Approved Permit,HORIZONTAL,,,,,31.97814178,-103.7037811,7902.23584,1/18/2019
42-301-33582-0000,BOXWOOD 55-1-12 UNIT 4H,PERMIT,Approved Permit,HORIZONTAL,,,,,31.97814178,-103.7038803,7930.880371,12/14/2018
42-301-33566-0000,STINGRAY 53-2-25 LOV UNIT 4H,PERMIT,Active,HORIZONTAL,,,,,31.81124687,-103.5012741,4817.944336,3/25/2018
42-301-33616-0000,RUDD DRAW 26-21 4H,PERMIT,Approved Permit,HORIZONTAL,,,,,31.8500576,-103.4655991,8353.776367,8/3/2018
42-301-33574-0000,HANGING H RANCH SWD 1,INJECTION,Active,VERTICAL,,,,,31.96655655,-103.7412872,,4/15/2018
42-301-33614-0000,RUDD DRAW 26-21 3H,PERMIT,Approved Permit,HORIZONTAL,1/1/2019,60993,122829,0,31.85009003,-103.465477,8341.298828,4/15/2018
42-301-33532-0000,MURUS 55-2-30 LOV UNIT NW 2H,OIL,Active,HORIZONTAL,6/1/2018,124400,433880,515577,31.81779671,-103.8015137,5209.728516,2/20/2018
42-301-33657-0000,PRICELESS C26-1 UNIT C 3H,PERMIT,Approved Permit,HORIZONTAL,,,,,31.83058739,-103.4309235,10226.47656,4/26/2019
42-301-33631-0000,LINK VJ RANCH 23-11 D,OIL,Active,HORIZONTAL,9/1/2018,165527,558135,0,31.83196259,-103.7302704,10691.05469,3/2/2018
42-301-33666-0000,CHALLENGER FORTRESS SWD 7-4 4,PERMIT,Active,VERTICAL,,,,,31.98051453,-103.5830078,,3/1/2018
42-301-33673-0000,UNIVERSITY NECHES 19-23 1D,INJECTION,Active,DIRECTIONAL,,,,,31.66919136,-103.3984528,326,4/24/2018
42-301-33635-0000,LINK VJ RANCH 14-23 H 8H,OIL,Active,HORIZONTAL,6/1/2018,144937,659212,952750,31.85521317,-103.7207031,8536.035156,3/14/2018
42-301-33658-0000,PRICELESS C26-1 UNIT C 4H,PERMIT,Approved Permit,HORIZONTAL,,,,,31.83056259,-103.431015,10236.36133,5/17/2019
42-301-33652-0000,STATE 48 10,OIL,Active,VERTICAL,11/1/2018,42037,80146,0,31.77096748,-103.5010452,1419,2/3/2018
42-301-33655-0000,PRICELESS C26-1 UNIT C 2H,PERMIT,Approved Permit,HORIZONTAL,,,,,31.83061218,-103.4308319,10227.16309,4/19/2019
42-301-33632-0000,LINK VJ RANCH 14-23 E 5H,OIL,Active,HORIZONTAL,9/1/2018,146129,501891,0,31.85494995,-103.7257843,8446.125,3/2/2018
42-301-33667-0000,CHALLENGER FORTRESS SWD 7-5 5,PERMIT,Active,VERTICAL,,,,,31.97324371,-103.5824814,,3/18/2018
42-301-33634-0000,LINK VJ RANCH 14-23 G 7H,OIL,Active,HORIZONTAL,9/1/2018,153517,514316,0,31.85521317,-103.7208176,8556.186523,3/11/2018
42-301-33630-0000,LINK VJ RANCH 23-11 C,OIL,Active,HORIZONTAL,8/1/2018,131732,440752,0,31.83196259,-103.7303848,10684.19141,2/28/2018
42-301-33633-0000,LINK VJ RANCH 14-23 F 6H,OIL,Active,HORIZONTAL,9/1/2018,148407,484021,0,31.85494995,-103.7256699,8440.376953,3/9/2018
42-301-33699-0000,SILVERTIP 76-7 UNIT A 5H,OIL,Active,HORIZONTAL,10/1/2018,291553.031,656834,0,31.9685173,-103.5953674,11467.52246,2/4/2018
42-301-33710-0000,RUDD DRAW 26-3 3H,PERMIT,Active,HORIZONTAL,10/1/2018,128635,225084,2022675,31.87004471,-103.4491119,5480.19043,2/27/2018
42-301-33708-0000,SASSAFRAS 55-1-24 UNIT 2H,OIL,Active,HORIZONTAL,8/1/2018,117014,490992,714621,31.95744896,-103.7165909,10985.30664,5/1/2018
42-301-33711-0000,RIPPIN WRANGLER C26-19 5H,OIL,Active,HORIZONTAL,3/1/2018,53115,77587,227113,31.83898354,-103.4484253,5670.389648,12/22/2017
42-301-33697-0000,UNIVERSITY NOLAN 19-23 1D,DISPOSAL,Active,VERTICAL,,,,,31.66059685,-103.382637,,5/18/2018
42-301-33703-0000,SILVERTIP 76-7 UNIT B 2H,PERMIT,Active,HORIZONTAL,12/1/2018,192061,397193,412207,31.9680233,-103.5908203,11651.25586,1/15/2018
42-301-33712-0000,RUDD DRAW 26-3 4H,PERMIT,Approved Permit,HORIZONTAL,,,,,31.87007904,-103.4489899,5477.11377,7/27/2018
42-301-33701-0000,SILVERTIP 76-7 UNIT A 10H,PERMIT,Active,HORIZONTAL,11/1/2018,215128,455038,529423,31.9680233,-103.5909195,11640.1416,1/28/2018
42-301-33706-0000,UNIVERSITY RED 20-8 1D,INJECTION,Active,DIRECTIONAL,,,,,31.71784592,-103.3438416,500,8/30/2018
42-301-33700-0000,SILVERTIP 76-7 UNIT A 6H,PERMIT,Active,HORIZONTAL,12/1/2018,56819,177269,139829,31.9685173,-103.5952682,11466.73438,1/28/2018
42-301-33698-0000,SILVERTIP 76-7 UNIT A 4H,OIL,Active,HORIZONTAL,12/1/2018,70035,148111,274867,31.9685173,-103.595459,11459.25586,1/1/2018
42-301-33704-0000,SILVERTIP 76-7 UNIT B 3H,PERMIT,Active,HORIZONTAL,12/1/2018,129449,242796,277827,31.9680233,-103.5907211,11657.80762,12/31/2017
42-301-33705-0000,UNIVERSITY TRINITY 20-17 1D,INJECTION,Active,HORIZONTAL,,,,,31.70824623,-103.3433228,1394,8/14/2018
42-301-33734-0000,MESQUITE HEAT 28-41 UNIT 4H,PERMIT,OPEN SHUT IN,HORIZONTAL,,,,,31.76191139,-103.3721619,7744.701172,1/4/2018
42-301-33730-0000,ZUMA 3 B203CN,OIL,Active,HORIZONTAL,5/1/2018,98209,491768,335655,31.99947357,-103.9500198,4929.478027,2/2/2018
42-301-33740-0000,SWEET MARILYN 57-T1-12 W108H,PERMIT,Active,HORIZONTAL,5/1/2018,129374,622407,926779,31.97282982,-103.9111633,4679.161621,12/31/2017
42-301-33735-0000,RUDD DRAW 26-2 8H,PERMIT,Active,HORIZONTAL,8/1/2018,82568,181296.438,218284,31.87231636,-103.4489441,5716.52832,3/12/2018
42-301-33732-0000,MESQUITE HEAT 28-41 UNIT 3H,PERMIT,OPEN SHUT IN,HORIZONTAL,,,,,31.76198959,-103.3721924,7690.536133,12/24/2017
42-301-33733-0000,RUDD DRAW 26-2 7H,PERMIT,Active,HORIZONTAL,8/1/2018,82475,181247,1205465,31.87228394,-103.4490662,5709.908203,3/14/2018
42-301-33739-0000,STATE-JUDGE 48-3 WS 1H,OIL,Active,HORIZONTAL,1/1/2019,27808,51903,0,31.77993011,-103.5119095,10273.74023,5/17/2018
42-301-33746-0000,ZUMA 3 W202CN,PERMIT,Active,HORIZONTAL,,,,,31.99947357,-103.949852,4923.080566,12/30/2017
42-301-33737-0000,TAYLOR DC26-17 4H,PERMIT,Approved Permit,HORIZONTAL,,,,,31.89635849,-103.4688034,7772.035156,8/17/2018
42-301-33731-0000,ZUMA 3 W101CN,OIL,Active,HORIZONTAL,5/1/2018,194158,1677756,939255,31.99947357,-103.9496918,4923.068848,12/7/2017
42-301-33677-0000,WOLF 80-TTT-B33-WF SA 207H,OIL,Active,HORIZONTAL,4/1/2018,209435,872453,0,31.68538094,-103.6115952,6483.11084,2/5/2018
42-301-33743-0000,TAYLOR EC26-17 5H,PERMIT,Approved Permit,HORIZONTAL,,,,,31.89632416,-103.4689255,7762.665527,9/14/2018
42-301-33678-0000,WIGGINS 1-48 UNIT 1H 1H,PERMIT,Approved Permit,HORIZONTAL,11/1/2018,44312,85361,0,31.68211365,-103.4753876,7099.833496,8/17/2018
42-301-33725-0000,BLACKTIP 1-42 UNIT 10H,PERMIT,OPEN SHUT IN,HORIZONTAL,,,,,31.67875671,-103.4648361,5000.924316,1/11/2018
42-301-33750-0000,BING 54-2-36 LOV W UNIT 1H,PERMIT,Active,HORIZONTAL,,,,,31.79773521,-103.614769,9707.271484,4/11/2018
42-301-33724-0000,BRUNSON F 1323H,OIL,Active,HORIZONTAL,6/1/2018,114365,175473,627741,31.93709755,-103.4898834,5794.286133,1/11/2018
42-301-33742-0000,STATE-JUDGE 48-3 WS III 3H,PERMIT,OPEN SHUT IN,HORIZONTAL,1/1/2019,1338,3725,0,31.78000259,-103.5055161,10348.11328,2/25/2018
42-301-33747-0000,STATE-JUDGE 48-3 WS IV 4H,PERMIT,OPEN SHUT IN,HORIZONTAL,1/1/2019,114,214,0,31.78000069,-103.5044479,10273.53906,2/24/2018
42-301-33753-0000,POPLAR 55-1-24 UNIT 1H,OIL,Active,HORIZONTAL,4/1/2018,16138,438036,97730,31.95739555,-103.7023926,10964.1748,12/21/2017
42-301-33748-0000,STATE-JUDGE 48-3 WS V 5H,OIL,Active,HORIZONTAL,2/1/2019,2092,2432,0,31.78001022,-103.5053558,10292.33984,2/22/2018
42-301-33741-0000,STATE-JUDGE 48-3 WS II 2H,OIL,Active,HORIZONTAL,2/1/2019,10916,18369,0,31.77993393,-103.5118332,10275.26758,5/18/2018
42-301-33779-0000,ST JOHN 76 2734 33H,PERMIT,OPEN SHUT IN,HORIZONTAL,,,,,31.9401722,-103.5356979,10074.49902,9/11/2018
42-301-33790-0000,MUSTANG 28-21 UNIT 2H,OIL,Active,HORIZONTAL,6/1/2018,85596,109979,538079,31.81805801,-103.3645782,10924.38281,2/18/2018
42-301-33756-0000,Z&T 42 E006,OIL,Active,HORIZONTAL,4/1/2018,156631,436462,531806,31.91200066,-103.6909866,5076.924805,12/19/2017
42-301-33801-0000,TIGER 55-2-12 LOV 3H,PERMIT,OPEN SHUT IN,HORIZONTAL,,,,,31.85271645,-103.7056122,5689.572754,6/19/2018
42-301-33796-0000,LINK-VJ RANCH 55-2-16 LOV W 2H,PERMIT,Active,HORIZONTAL,,,,,31.84113312,-103.765831,9915.575195,3/10/2018
42-301-33785-0000,BOYD 2604 SWD 1,PERMIT,Active,VERTICAL,,,,,31.89034653,-103.4528885,,3/18/2018
42-301-33807-0000,MINOT 75-8 LOV 1H,PERMIT,Active,HORIZONTAL,9/1/2018,41582,67203,192996,31.89453506,-103.4100266,5402.114258,4/23/2018
42-301-33816-0000,HAMMERHEAD 54-1-48 1H,PERMIT,Active,HORIZONTAL,10/1/2018,98326,195632,334126,31.8990345,-103.6147537,5657.351563,1/12/2018
42-301-33818-0000,APC 54-1-18 1D,INJECTION,Shut-In UIC,VERTICAL,,,,,31.96634293,-103.6982651,234,5/17/2018
42-301-33755-0000,STATE PATHFINDER 7 38H,OIL,Active,HORIZONTAL,2/1/2018,58924,207555,508617,31.99954414,-103.6289902,5162.598145,12/27/2017
42-301-33792-0000,Z&T 20 D001,OIL,Active,HORIZONTAL,5/1/2018,118071.031,289098.9,817637,31.95575333,-103.6771393,5075.600098,1/8/2018
42-301-33776-0000,ST JOHN 76 2734 23H,PERMIT,OPEN SHUT IN,HORIZONTAL,11/1/2018,2052,1814,0,31.9401722,-103.5358887,10073.54688,9/29/2018
42-301-33802-0000,TIGER 55-2-12 LOV 4H,PERMIT,OPEN SHUT IN,HORIZONTAL,,,,,31.85276985,-103.7056122,5769.165039,6/14/2018
42-301-33800-0000,TIGER 55-2-12 LOV 2H,PERMIT,Active,HORIZONTAL,,,,,31.85266113,-103.7056122,5684.150879,6/19/2018
42-301-33812-0000,LINDSAY 10-3I 2SR,OIL,OPEN SHUT IN,HORIZONTAL,8/1/2018,19223,81770,0,31.9996357,-103.7457809,7360,12/27/2017
42-301-33774-0000,ST JOHN 76 2734 11H,PERMIT,OPEN SHUT IN,HORIZONTAL,11/1/2018,1620,1530,0,31.94104195,-103.5335999,10136.28125,7/12/2018
42-301-33759-0000,Z&T 42 G009,OIL,Active,HORIZONTAL,4/1/2018,156690,436433,475852,31.91200256,-103.6856689,5070.583496,1/25/2018
42-301-33789-0000,ST JOHN 76 2734 34H,PERMIT,OPEN SHUT IN,HORIZONTAL,10/1/2018,6340,5920,0,31.9401741,-103.5378265,10075.15918,7/1/2018
42-301-33768-0000,ST KITTS 76 2833 3H,PERMIT,Approved Permit,HORIZONTAL,,,,,31.94251823,-103.5535507,10684.90723,4/12/2019
42-301-33794-0000,Z&T 20 C001,OIL,Active,HORIZONTAL,6/1/2018,81058.66,298610.3,425048,31.95575333,-103.6772461,5069.500977,1/9/2018
42-301-33795-0000,SEQUOIA 55-1-14 UNIT 2H,PERMIT,Active,HORIZONTAL,12/1/2018,32770,140175,0,31.95744514,-103.7236481,10184.52051,3/23/2018
42-301-33799-0000,TIGER 55-2-12 LOV 1H,PERMIT,Active,HORIZONTAL,,,,,31.85260582,-103.7056122,5753.625488,6/29/2018
42-301-33758-0000,Z&T 42 F005,OIL,Active,HORIZONTAL,4/1/2018,156687,436446,612014,31.91200066,-103.6909103,5111.582031,1/4/2018
42-301-33783-0000,BOYD 2501 SWD 1,DISPOSAL,Active,VERTICAL,,,,,31.92229271,-103.396698,,3/5/2018
42-301-33808-0000,Z&T 20 X001,INJECTION,Active,VERTICAL,,,,,31.94630051,-103.6748505,5441,4/23/2018
42-301-33814-0000,CBR 9-4B 2H,OIL,Active,HORIZONTAL,9/1/2018,152736,969410,0,31.96998787,-103.8684998,10907.68945,1/10/2018
42-301-33760-0000,ST KITTS 76 2833 2H,PERMIT,Approved Permit,HORIZONTAL,,,,,31.94250298,-103.5518494,10789.39551,5/25/2018
42-301-33793-0000,Z&T 20 B002,OIL,Active,HORIZONTAL,6/1/2018,88418.88,295282.3,216910,31.95575333,-103.6773605,5107.068848,1/8/2018
42-301-33813-0000,KENTZEL STATE 42 W101CN,OIL,Active,HORIZONTAL,8/1/2018,126928,540634,661135,31.91204643,-103.7985611,4922.233887,3/27/2018
42-301-33782-0000,BOYD 7527 SWD 1,INJECTION,Active,VERTICAL,,,,,31.86844444,-103.4327698,,2/19/2018
42-301-33819-0000,APC 55-1-24 1D,INJECTION,Shut-In UIC,VERTICAL,,,,,31.9543972,-103.7093887,1957,7/19/2018
42-301-33797-0000,LINK-VJ RANCH 55-2-16 LOV 3H,PERMIT,Active,HORIZONTAL,,,,,31.84113312,-103.7657623,9910.451172,3/14/2018
42-301-33772-0000,ST JOHN 76 2734 1H,PERMIT,OPEN SHUT IN,HORIZONTAL,11/1/2018,432,749,0,31.94104195,-103.5316238,10133.99414,8/29/2018
42-301-33784-0000,BOYD 2510 SWD 1,PERMIT,Active,VERTICAL,,,,,31.94659424,-103.4265518,,3/18/2018
42-301-33791-0000,MUSTANG 28-21 UNIT 3H,OIL,Active,HORIZONTAL,9/1/2018,84602,94471,657377,31.81803322,-103.3646698,10924.70605,3/2/2018
42-301-33806-0000,TIGER 55-2-12 LOV 8H,PERMIT,Approved Permit,HORIZONTAL,,,,,31.8527832,-103.7157974,5680.005859,1/4/2019
42-301-33762-0000,ST KITTS 76 2833 11H,PERMIT,Approved Permit,HORIZONTAL,,,,,31.94250298,-103.5516586,10699.51953,4/27/2018
42-301-33810-0000,EBONY 55-1-40 UNIT 3H,OIL,Active,HORIZONTAL,5/1/2018,60001,253523,270247,31.91368484,-103.7671127,8317.161133,3/8/2018
42-301-33765-0000,ST KITTS 76 2833 31H,PERMIT,Approved Permit,HORIZONTAL,,,,,31.94250298,-103.5515594,10697.63379,7/13/2018
42-301-33809-0000,Z&T 32 X001,DISPOSAL,Active,VERTICAL,,,,,31.92476082,-103.6769638,,5/18/2018
42-301-33771-0000,ST JOHN 76 2734 31H,PERMIT,OPEN SHUT IN,HORIZONTAL,11/1/2018,2484,2098,0,31.94025421,-103.5317001,10135.14746,9/16/2018
42-301-33763-0000,ST KITTS 76 2833 1H,PERMIT,Approved Permit,HORIZONTAL,,,,,31.94246483,-103.5491562,10668.45605,6/7/2019
42-301-33815-0000,CBR 9-4A 1H,OIL,Active,HORIZONTAL,9/1/2018,185966,1139091,0,31.97005653,-103.8684921,10844.78809,1/12/2018
42-301-33749-0000,GELLER 54-2-37 LOV UNIT 1H,PERMIT,Active,HORIZONTAL,,,,,31.79684067,-103.6127548,10808.51758,4/18/2018
42-301-33764-0000,WOLF 80-TTT-B33-WF SA 208H,OIL,Active,HORIZONTAL,11/1/2018,75520,742724,0,31.68533516,-103.6115189,7403.73877,7/15/2018
42-301-33775-0000,ST JOHN 76 2734 32H,PERMIT,OPEN SHUT IN,HORIZONTAL,,,,,31.94017029,-103.5335693,10073.76855,7/29/2018
42-301-33780-0000,ST JOHN 76 2734 12H,PERMIT,OPEN SHUT IN,HORIZONTAL,9/1/2018,13291,6718,0,31.9401741,-103.5379181,10074.13574,8/3/2018
42-301-33606-0000,CBR 9-4M 13H,OIL,Active,HORIZONTAL,9/1/2018,171539,850433,0,31.97019577,-103.8684921,10780.64746,1/6/2018
42-301-33485-0000,CHECKERS 14 1H,OIL,Active,HORIZONTAL,4/1/2018,198291,406663,1110936,31.80067253,-103.4282455,4842,2/3/2018
42-301-33151-0000,ST. LUCIA 76 2833 2H,,Active,HORIZONTAL,12/1/2018,206621,266594,622428,31.94213104,-103.5625458,10780.20215,12/19/2017
42-301-33817-0000,LARSON 04-TTT-B02 202H,OIL,Active,HORIZONTAL,5/1/2018,108244,459801,834471,31.75085258,-103.6046219,7536.233887,1/26/2018
42-301-33830-0000,AGGIE UNIT 75-67-66 601H,OIL,Active,HORIZONTAL,7/1/2018,122201,668841,743742,31.66691017,-103.5793076,10144.7666,3/1/2018
42-301-33850-0000,QUANAH PARKER A UNIT 8H,OIL,Active,HORIZONTAL,5/1/2018,175495,270119,246376,31.96389008,-103.4467316,10277.53906,2/13/2018
42-301-33853-0000,QUANAH PARKER A UNIT 11H,OIL,Active,HORIZONTAL,5/1/2018,234910,340383.1,1144185,31.96304512,-103.450058,10256.68555,2/11/2018
42-301-33841-0000,CBR 9-4C 3H,OIL,Active,HORIZONTAL,9/1/2018,259211,1620206,1206816,31.97019768,-103.8610992,10794.9043,2/9/2018
42-301-33847-0000,LIZZY 26 1H,OIL,Active,HORIZONTAL,6/1/2018,105930,131095,639637,31.79608154,-103.3335953,4873.246582,2/5/2018
42-301-33827-0000,YELLOWJACKET UL UNIT 19-3 13H,OIL,Active,HORIZONTAL,7/1/2018,44032,63738,303908,31.73910332,-103.4268799,7521.925293,3/17/2018
42-301-33828-0000,CORSAIR C26-20 4H,OIL,Active,HORIZONTAL,7/1/2018,24843,44335,143667,31.83579254,-103.4685364,4855.73584,3/3/2018
42-301-33833-0000,RUDD DRAW 29-3 11H,PERMIT,Approved Permit,HORIZONTAL,,,,,31.82078171,-103.4606934,5359.32666,2/8/2019
42-301-33829-0000,KENTZEL STATE 42 W102CN,,Active,HORIZONTAL,8/1/2018,144278,610630,547794,31.91204643,-103.7984009,4924.187988,3/3/2018
42-301-33834-0000,RUDD DRAW 29-3 12H,OIL,Approved Permit,HORIZONTAL,,,,,31.82081413,-103.4605713,5356.525391,2/22/2019
42-301-33843-0000,CBR 9-4E 5H,OIL,Active,HORIZONTAL,9/1/2018,154024,961639,0,31.97006035,-103.8610992,10823.2334,2/14/2018
42-301-33852-0000,QUANAH PARKER A UNIT 10H,OIL,Active,HORIZONTAL,5/1/2018,141429.625,215267,590045,31.96295738,-103.4500275,10287.45117,2/10/2018
42-301-33152-0000,ST. LUCIA 76 2833 32H,,OPEN SHUT IN,HORIZONTAL,11/1/2018,194710,243818,786236,31.94213104,-103.5626373,10782.51855,12/19/2017
42-301-33826-0000,YELLOWJACKET UL UNIT 19-3 12H,OIL,Active,HORIZONTAL,7/1/2018,95540,144444,649281,31.73907471,-103.4269714,7503.224121,3/26/2018
42-301-33831-0000,RUDD DRAW 29-3 10H,PERMIT,Approved Permit,HORIZONTAL,,,,,31.82016563,-103.4629593,5360.844727,11/30/2018
42-301-33824-0000,BOYD 11 1WB,,OPEN SHUT IN,HORIZONTAL,3/1/2018,965,5335,0,31.94596481,-103.3394012,5397.892578,3/9/2018
42-301-33842-0000,CBR 9-4D 4H,OIL,Active,HORIZONTAL,9/1/2018,147140,1002495,551993,31.97012901,-103.8610992,10799.50488,2/12/2018
42-301-33823-0000,BOYD 11 1WX,,OPEN SHUT IN,HORIZONTAL,3/1/2018,448,2931,0,31.94598198,-103.3393402,5397.794922,3/9/2018
42-301-33837-0000,JOHNSON 54-2-40 LOV 2D,INJECTION,Active,VERTICAL,,,,,31.78236008,-103.6641464,635,6/5/2018
42-301-33832-0000,GOODNIGHT UNIT 6H,,Approved Permit,HORIZONTAL,,,,,31.9111824,-103.5200577,9963.213867,1/22/2018
42-301-33821-0000,CROCKETT REESE STATE UNIT B 2406H,,Active,HORIZONTAL,11/1/2018,93956,127112,301413,31.94340515,-103.4583435,7369.855469,4/19/2018
42-301-33825-0000,UNIVERSITY 19-7 A 1H,OIL,Active,HORIZONTAL,6/1/2018,90426,258487,593186,31.70214081,-103.4552307,8070.742676,2/24/2018
42-301-33154-0000,ST. LUCIA 76 2833 1H,OIL,Active,HORIZONTAL,1/1/2019,169850,263442,423945,31.9426136,-103.5590134,10958.82031,1/22/2018
42-301-33153-0000,ST. LUCIA 76 2833 22H,PERMIT,Active,HORIZONTAL,12/1/2018,174596,226469,705016,31.94213104,-103.5627365,10783.8623,2/16/2018
42-301-33851-0000,QUANAH PARKER A UNIT 9H,OIL,Active,HORIZONTAL,5/1/2018,222483,324542,928193,31.96386147,-103.4468307,10286.40039,2/14/2018
42-301-33854-0000,GOODNIGHT UNIT 6HR,,Approved Permit,HORIZONTAL,,,,,31.9111824,-103.5200043,9962.483398,1/28/2018
42-301-33820-0000,CROCKETT REESE STATE UNIT B 2405H,PERMIT,Active,HORIZONTAL,11/1/2018,68836,102497,731160,31.94337273,-103.4584732,7369.134766,3/4/2018
42-301-33798-0000,VJ RANCH-LINK 55-2-21 LOV 1H,PERMIT,Active,HORIZONTAL,,,,,31.84113312,-103.765892,11028.34277,3/4/2018
42-301-33754-0000,SILVERTIP UNIT Z 2H,OIL,Active,HORIZONTAL,4/1/2018,164098,295687,1552877,31.96869278,-103.4938965,11418.93359,1/13/2018
42-301-33617-0000,HERON 54-2-4 UNIT 1H,OIL,Active,HORIZONTAL,4/1/2018,94062,248737,505582,31.85280991,-103.6654434,10993.88379,1/29/2018
42-301-33751-0000,TOTUM 18-TTT-C24 NL 212H,OIL,Active,HORIZONTAL,3/1/2018,181855,325899,566791,31.95195007,-103.3721313,4908.183105,12/31/2017
42-301-33886-0000,RUSTLER D UNIT 2H,OIL,Active,HORIZONTAL,8/1/2018,107144,204285,0,31.93996048,-103.5116501,9828.658203,5/14/2018
42-301-33876-0000,DACO NEWTEX 1,,Active,VERTICAL,,,,,31.9974575,-103.4976959,350,8/4/2018
42-301-33890-0000,VJ SWD 6,INJECTION,Active,VERTICAL,,,,,31.85500336,-103.6719894,,6/1/2018
42-301-33885-0000,COTTONWOOD 55-1-14 UNIT 3H,PERMIT,Active,HORIZONTAL,11/1/2018,11987,88674,0,31.95742989,-103.7337112,10170.88086,7/30/2018
42-301-33867-0000,FOX SWD 2,INJECTION,Active,VERTICAL,,,,,31.97435188,-103.7037506,,4/14/2018
42-301-33846-0000,ASPEN 55-1-30 UNIT 2H,OIL,Active,HORIZONTAL,7/1/2018,87754,442100,383570,31.93555641,-103.8023529,8356.06543,4/21/2018
42-301-33880-0000,WEBER 26 E001,OIL,Active,HORIZONTAL,8/1/2018,217142,279912.562,1323746,31.83156395,-103.4821625,5045.124023,3/5/2018
42-301-33860-0000,TAHITI 55-2-17 LOV 1H,PERMIT,Active,HORIZONTAL,7/1/2018,95228,335930,352344,31.85300827,-103.7753067,4755.572266,5/2/2018
42-301-33891-0000,BULLHEAD STATE 55-1-45 UNIT B 3H,,OPEN SHUT IN,HORIZONTAL,,,,,31.89188576,-103.7687988,8336.191406,6/7/2018
42-301-33872-0000,RIPPIN WRANGLER C26-19 6H,PERMIT,Active,HORIZONTAL,11/1/2018,78529,126329,0,31.83895874,-103.4485168,5666.697754,6/13/2018
42-301-33873-0000,JUDGE 3WN 1H,,Approved Permit,HORIZONTAL,,,,,31.75225067,-103.5160828,5002.630371,11/16/2018
42-301-33883-0000,WEBER 26 F002,OIL,Active,HORIZONTAL,8/1/2018,228704,287490,772924,31.83162689,-103.4819336,5225.64209,5/13/2018
42-301-33879-0000,CHOLLA 15 SW 2,,Active,VERTICAL,,,,,31.95884323,-103.543251,,6/21/2018
42-301-33861-0000,TAHITI 55-2-17 LOV 2H,PERMIT,Active,HORIZONTAL,7/1/2018,95051,335133,728725,31.85295296,-103.7753067,4585.595215,4/28/2018
42-301-33892-0000,BRUNSON E,PERMIT,OPEN SHUT IN,HORIZONTAL,2/1/2019,70571,112367,0,31.95776176,-103.4695511,8089.842773,6/7/2018
42-301-33811-0000,BISMARCK 75-12 LOV 1H,,Active,HORIZONTAL,,,,,31.89458275,-103.4099884,4582.45752,4/19/2018
42-301-33878-0000,CHOLLA 15 E 1,,Active,VERTICAL,,,,,31.95883751,-103.53479,,6/2/2018
42-301-33877-0000,PINCUSHION 14 1,INJECTION,Active,VERTICAL,,,,,31.9588356,-103.5263519,,5/12/2018
42-301-33889-0000,VJ SWD 5,INJECTION,Active,VERTICAL,,,,,31.8578186,-103.6839218,,3/16/2018
42-301-33893-0000,BRUNSON E 806 2H,PERMIT,Approved Permit,HORIZONTAL,,,,,31.95772934,-103.4696732,8096.335938,5/25/2018
42-301-33888-0000,VJ SWD 1,INJECTION,Active,VERTICAL,,,,,31.85713959,-103.7160416,,2/2/2018
42-301-33882-0000,WEBER 26 F001,OIL,Active,HORIZONTAL,8/1/2018,261665,322321,908234,31.83160591,-103.4820099,5130.824219,4/25/2018
42-301-33871-0000,BULLHEAD STATE 55-1-45 UNIT B 2H,,Active,HORIZONTAL,11/1/2018,49895,162916,0,31.89188576,-103.768898,8335.694336,6/13/2018
42-301-33848-0000,MEDORA 29 LOV UNIT 0805 1H,,Active,HORIZONTAL,,,,,31.79924965,-103.4807587,10853.01758,7/6/2018
42-301-33862-0000,FARGO 75-13 LOV 1H,,Active,HORIZONTAL,9/1/2018,38712,61059,123269,31.90436172,-103.3738403,4451.954102,5/16/2018
42-301-33881-0000,WEBER 26 E002,OIL,Active,HORIZONTAL,8/1/2018,81572,136244,497281,31.83158493,-103.4820862,5069.197266,4/11/2018
42-301-33868-0000,HUGHES & TALBOT 75-26 2H,OIL,Active,HORIZONTAL,6/1/2018,118696,140323,677181,31.88111877,-103.4178925,6015.165527,4/12/2018
42-301-33869-0000,BLACK STALLION 28-10 1H,OIL,Active,HORIZONTAL,8/1/2018,104225,117950,0,31.83449745,-103.3520126,5665.162598,6/7/2018
42-301-33866-0000,FOX SWD 1,INJECTION,Active,VERTICAL,,,,,31.97174454,-103.716774,,3/21/2018
42-301-33896-0000,N. AERMOTOR C25-8 SWD 4,INJECTION,Active,VERTICAL,,,,,31.97418022,-103.4340515,,12/2/2018
42-301-33884-0000,RUSTLER C UNIT 2H,,Active,HORIZONTAL,8/1/2018,92072,112759,227767,31.93995667,-103.5089417,10115.43555,5/13/2018
42-301-33855-0000,REVOLVER 7507 E,,Active,HORIZONTAL,7/1/2018,179887,314596,0,31.90045357,-103.3935242,4931.241699,2/25/2018
42-301-33844-0000,CBR 9-4F 6H,OIL,Active,HORIZONTAL,9/1/2018,152356,1021045,0,31.96999168,-103.8610992,10865.45117,2/14/2018
42-301-33943-0000,CBR 41-44E 5H,OIL,Active,HORIZONTAL,1/1/2019,93328,328090,0,31.91345406,-103.8845062,10825.53223,4/11/2018
42-301-33899-0000,STATE ATLAS E 7H,PERMIT,OPEN SHUT IN,HORIZONTAL,,,,,31.9425106,-103.6265488,10243.07227,6/2/2018
42-301-33909-0000,CLARE GLASSELL 71-TTT-B01 WF 204H,OIL,Active,HORIZONTAL,7/1/2018,163665,516380,0,31.68838501,-103.5616684,4408.422852,6/11/2018
42-301-33936-0000,WEBER 26 SWD 2,OIL,Active,VERTICAL,9/1/2018,20640,28152,0,31.84223366,-103.4792099,7116,5/29/2018
42-301-33929-0000,ORION B 5 3H,OIL,Active,HORIZONTAL,8/1/2018,63992,467107,258304,31.95583916,-103.6096344,5053.641602,3/30/2018
42-301-33940-0000,CBR 41-44B 2H,OIL,Active,HORIZONTAL,1/1/2019,103083,361410,0,31.91345406,-103.8855057,10813.84668,3/30/2018
42-301-33900-0000,STATE ATLAS F 8H,PERMIT,OPEN SHUT IN,HORIZONTAL,,,,,31.94251251,-103.6266556,10238.20898,6/3/2018
42-301-33939-0000,CBR 41-44A 1H,OIL,Active,HORIZONTAL,1/1/2019,77180,379568,0,31.91352272,-103.8855057,10849.91992,3/30/2018
42-301-33915-0000,ROCAZOLLER STATE 54-1-12 LOV 7H,PERMIT,OPEN SHUT IN,HORIZONTAL,,,,,31.97206306,-103.6029282,4705.344238,6/27/2018
42-301-33925-0000,BULLHEAD STATE 55-1-45 UNIT B 5H,PERMIT,OPEN SHUT IN,HORIZONTAL,,,,,31.89188576,-103.7687073,8345.430664,6/5/2018
42-301-33937-0000,UNIVERSITY 19 PW UNIT 2204H,OIL,Active,HORIZONTAL,9/1/2018,61209,69510,295539,31.65756416,-103.375145,6693.178223,5/29/2018
42-301-33933-0000,NORTH RUDD DRAW 22 1H,OIL,Active,HORIZONTAL,8/1/2018,150116,298393,587688,31.86196899,-103.4834213,4895.611328,5/7/2018
42-301-33948-0000,JACKSON TRUST C 12-TTT-C24 NL 226H,OIL,Active,HORIZONTAL,7/1/2018,74982,129243,579798,31.95610046,-103.3584061,5422.695801,5/3/2018
42-301-33923-0000,UNIVERSITY 19 TG UNIT 2203H,OIL,Active,HORIZONTAL,9/1/2018,64834,133724,346762,31.65761757,-103.3751602,6644.182617,5/26/2018
42-301-33910-0000,ROCAZOLLER STATE 54-1-12 LOV 5H,PERMIT,Active,HORIZONTAL,,,,,31.97171974,-103.607605,4828.897461,8/13/2018
42-301-33941-0000,CBR 41-44C 3H,OIL,Active,HORIZONTAL,1/1/2019,71956,251869,0,31.91338348,-103.8855057,10793.25488,4/3/2018
42-301-33947-0000,HERON 54-2-4 UNIT 2H,PERMIT,Active,HORIZONTAL,10/1/2018,102482,235377,544280,31.88445282,-103.6528549,10998.44141,8/13/2018
42-301-33924-0000,GOODNIGHT UNIT 8H,PERMIT,OPEN SHUT IN,HORIZONTAL,9/1/2018,9129,18181,33989,31.91117668,-103.5162354,9952.882813,5/26/2018
42-301-33914-0000,ROCAZOLLER STATE 54-1-12 LOV 6H,PERMIT,Active,HORIZONTAL,,,,,31.97212029,-103.6029282,4744.029297,6/24/2018
42-301-33908-0000,ROCAZOLLER STATE 54-1-12 LOV 4H,PERMIT,Active,HORIZONTAL,,,,,31.97171593,-103.6076736,4860.129883,8/16/2018
42-301-33907-0000,ROCAZOLLER STATE 54-1-12 LOV 3H,PERMIT,Active,HORIZONTAL,,,,,31.97171593,-103.6077423,4962.040527,8/19/2018
42-301-33928-0000,ORION A 5 2H,OIL,Active,HORIZONTAL,8/1/2018,95367,626682,296090,31.95586967,-103.6133499,5063.486328,3/30/2018
42-301-33918-0000,ROCAZOLLER STATE 54-1-12 LOV 9H,PERMIT,Active,HORIZONTAL,,,,,31.97187233,-103.6029282,4897.662109,7/5/2018
42-301-33950-0000,PECOS 39 1H,PERMIT,OPEN SHUT IN,HORIZONTAL,11/1/2018,57987,283091,0,31.91059113,-103.8545837,4486.86084,4/27/2018
42-301-33902-0000,STATE ATLAS H 10H,PERMIT,,HORIZONTAL,1/1/2019,115649,630177,0,31.94251442,-103.6302032,10237.17773,6/3/2018
42-301-33917-0000,ROCAZOLLER STATE 54-1-12 LOV 8H,PERMIT,Active,HORIZONTAL,,,,,31.97195625,-103.6029282,4765.893066,7/1/2018
42-301-33951-0000,PECOS 39 2H,PERMIT,Active,HORIZONTAL,11/1/2018,52493,278267,0,31.91065979,-103.8545837,4537.078613,6/26/2018
42-301-33942-0000,CBR 41-44D 4H,PERMIT,OPEN SHUT IN,HORIZONTAL,,,,,31.91338539,-103.8845062,10800.51367,4/16/2018
42-301-33913-0000,WRANGLER B UNIT 2H,PERMIT,,HORIZONTAL,,,,,31.91344452,-103.5187531,9874.217773,3/29/2019
42-301-33949-0000,SILVERTIP 76-9 UNIT E 2H,PERMIT,OPEN SHUT IN,HORIZONTAL,,,,,31.96816254,-103.560936,11617.96875,7/8/2018
42-301-33931-0000,ORION B 5 5H,OIL,Active,HORIZONTAL,8/1/2018,120688,478158,466019,31.95585823,-103.6061325,5058.032227,4/1/2018
42-301-33932-0000,BOYD 21 5H,OIL,Active,HORIZONTAL,7/1/2018,150250,397485,624921,31.77593613,-103.463028,4851.614258,4/1/2018
42-301-33930-0000,ORION B 5 4H,OIL,Active,HORIZONTAL,8/1/2018,86301,429605,364737,31.9558773,-103.6094742,5080.598633,3/21/2018
42-301-33870-0000,GRAND FORKS 75-5 LOV 1H,PERMIT,Active,HORIZONTAL,9/1/2018,30617,44814,122147,31.90441322,-103.3738632,5444.942871,5/19/2018
42-301-33916-0000,CBR 11-2 1H,OIL,Active,HORIZONTAL,7/1/2018,196918,979395,535481,31.96947289,-103.8219299,11050.41992,3/22/2018
42-301-33945-0000,CBR 41-44 G-7H,OIL,Active,HORIZONTAL,1/1/2019,83449,304702,0,31.91359138,-103.8845062,10943.15918,4/4/2018
42-301-33922-0000,CY 41 1H,PERMIT,Active,HORIZONTAL,1/1/2019,65527,220826,0,31.91359138,-103.8855057,5666.538574,3/28/2018
42-301-33946-0000,ARROWHEAD A 1H,PERMIT,Active,HORIZONTAL,,,,,31.85401154,-103.3375397,10727.73633,6/9/2018
42-301-33944-0000,CBR 41-44 F-6H,OIL,Active,HORIZONTAL,1/1/2019,85886,294162,0,31.91352272,-103.8845062,10876.65527,4/4/2018
42-301-33856-0000,WEBER 26 G003,OIL,Active,HORIZONTAL,8/1/2018,97354,199081,242848,31.83358002,-103.4750595,5015.577637,2/25/2018
42-301-33858-0000,WEBER 26 G007,OIL,Active,HORIZONTAL,8/1/2018,59828,146161,476826,31.83353806,-103.4752121,5014.19043,2/22/2018
42-301-33752-0000,WOLF 80-TTT-B33-WF SA 205H,OIL,Active,HORIZONTAL,4/1/2018,209046,884771,0,31.68545151,-103.6115494,6469.203613,2/6/2018
42-301-33857-0000,WEBER 26 G006,OIL,Active,HORIZONTAL,8/1/2018,80816,156639.5,229325,31.83356094,-103.4751358,5013.84375,3/8/2018
42-301-33971-0000,ASH 55-1-32 UNIT 2H,PERMIT,OPEN SHUT IN,HORIZONTAL,3/1/2019,6696,21751,0,31.91155815,-103.7759781,10953.12598,10/9/2018
42-301-33961-0000,REED 24 UNIT 3H,PERMIT,,HORIZONTAL,,,,,31.90506363,-103.4894562,5180.170898,11/2/2018
42-301-33973-0000,PISTOL 24-10,PERMIT,Active,HORIZONTAL,10/1/2018,36401,89763,0,31.93354225,-103.3346558,4754.153809,5/30/2018
42-301-33980-0000,HOWARD POSNER 83-TTT-B33 SA 203H,OIL,Active,HORIZONTAL,2/1/2019,43415,156048,0,31.72068596,-103.6120224,7490.679688,11/13/2018
42-301-33988-0000,EL PATRON UNIT 6H,PERMIT,Active,HORIZONTAL,,,,,31.94611931,-103.4564972,10202.24512,5/8/2018
42-301-33926-0000,LONGHORN 55-1-30 UNIT 2H,PERMIT,Active,HORIZONTAL,12/1/2018,44205,192380,0,31.93335915,-103.8017426,8312,8/12/2018
42-301-33967-0000,BIG HORN 56-1-19 2H,OIL,Active,HORIZONTAL,8/1/2018,76008,471290,379603,31.95521164,-103.890007,4825.777832,4/25/2018
42-301-33972-0000,POPLAR 55-1-24 UNIT 2H,PERMIT,OPEN SHUT IN,HORIZONTAL,12/1/2018,115756,349419,0,31.95739555,-103.7024841,10975.2832,9/16/2018
42-301-33974-0000,ORION A 5 1HR,OIL,Active,HORIZONTAL,8/1/2018,58935,513066,209875,31.95588493,-103.6135101,5075.865234,5/18/2018
42-301-33966-0000,REN STATE 13 1H,PERMIT,Active,HORIZONTAL,8/1/2018,64873,91818,214849,31.97097969,-103.363884,4965.040039,6/12/2018
42-301-33987-0000,EL PATRON UNIT 6H,OIL,Active,HORIZONTAL,9/1/2018,196961,334118,913427,31.94500542,-103.4605331,10187.57031,5/8/2018
42-301-33956-0000,SAN BERNARD 55-2-9 LOV 1D,INJECTION,Active,VERTICAL,,,,,31.86494446,-103.7610092,1320,7/30/2018
42-301-33959-0000,PECOS STATE 39-46C 3H,PERMIT,Active,HORIZONTAL,11/1/2018,66908,332485,0,31.91059303,-103.8535767,9812.753906,5/2/2018
42-301-33960-0000,PECOS STATE 39-46D 4H,PERMIT,OPEN SHUT IN,HORIZONTAL,11/1/2018,114919,558651,0,31.91052437,-103.8535767,9819.017578,5/2/2018
42-301-33921-0000,LUDEMAN B 2525,PERMIT,,HORIZONTAL,3/1/2019,8585,17904,0,31.92778587,-103.439888,8145.455566,11/9/2018
42-301-33958-0000,PECOS STATE 39-46B 2H,PERMIT,Active,HORIZONTAL,11/1/2018,120077,643991,0,31.9106617,-103.8535767,9837.750977,4/30/2018
42-301-33978-0000,MAGNUS LARSON 04-TTT-B02 203H,PERMIT,Active,HORIZONTAL,11/1/2018,79348,301211,0,31.74510574,-103.5967331,7468.460938,10/15/2018
42-301-33982-0000,EL PATRON UNIT 4H,OIL,Active,HORIZONTAL,9/1/2018,271303,442123,1314246,31.9449501,-103.4607391,10192.22363,5/11/2018
42-301-33897-0000,RUSTLER D UNIT 1H,PERMIT,,HORIZONTAL,,,,,31.93995667,-103.5090485,10107.26367,5/13/2018
42-301-33952-0000,PECOS STATE 39-46A 1H,PERMIT,Active,HORIZONTAL,11/1/2018,112260,590989,0,31.91052246,-103.8545837,9773.708984,4/29/2018
42-301-33991-0000,CROCKETT REESE STATE UNIT B 2411H,PERMIT,Active,HORIZONTAL,11/1/2018,86009,119280,618542,31.94379044,-103.4569321,7370.210449,5/29/2018
42-301-33920-0000,LUDEMAN A 2525 1H,PERMIT,,HORIZONTAL,,,,,31.92782021,-103.4397659,8134.245117,10/12/2018
42-301-33979-0000,TITAN SWD 1,PERMIT,Active,VERTICAL,,,,,31.94591713,-103.6424484,227,8/29/2018
42-301-33990-0000,EL PATRON UNIT 9H,PERMIT,,HORIZONTAL,,,,,31.94617653,-103.4562912,10181.39355,4/12/2019
42-301-33962-0000,REED 24 UNIT 4H,PERMIT,,HORIZONTAL,11/1/2018,91008,126930,0,31.90497208,-103.4894562,5500.579102,10/12/2018
42-301-33968-0000,BIG HORN 56-1-19 3H,OIL,Active,HORIZONTAL,8/1/2018,98742,558854,469530,31.95521164,-103.8900909,4837.980957,4/23/2018
42-301-33981-0000,HOWARD POSNER 83-TTT-B33 SA 204H,OIL,Active,HORIZONTAL,2/1/2019,36631,139670,0,31.72068596,-103.6120224,7477.446777,11/14/2018
42-301-33963-0000,REED 24 UNIT 5H,OIL,Active,HORIZONTAL,11/1/2018,158205,343063,0,31.91358948,-103.4888458,8071.65918,8/20/2018
42-301-34033-0000,RUDD DRAW 29-3 13H,OIL,,HORIZONTAL,,,,,31.82009697,-103.4632034,5416.263184,12/24/2018
42-301-33849-0000,BOLD JOHNSON 56-T1-35X26 SA W101H,PERMIT,Active,HORIZONTAL,,,,,31.91885757,-103.8367691,8293.630859,7/6/2018
42-301-34034-0000,TAYLOR FC26-17 6H,PERMIT,,HORIZONTAL,,,,,31.86644745,-103.4599838,10817.96777,7/10/2018
42-301-34007-0000,MCGREGOR C UNIT 9H,OIL,Active,HORIZONTAL,3/1/2019,77,1011,0,31.91126251,-103.5356674,9986.367188,12/27/2018
42-301-34009-0000,PAINTBRUSH 27-6-21 5101H,PERMIT,Active,HORIZONTAL,,,,,31.87223434,-103.3265228,10874.19238,10/1/2018
42-301-34014-0000,STATE 48 W7HN,PERMIT,Active,HORIZONTAL,11/1/2018,39026,74496,167821,31.76616478,-103.4999847,5243.344727,7/8/2018
42-301-34031-0000,SID M. KYLE 26 E007,OIL,Active,HORIZONTAL,9/1/2018,105839,202210,223105,31.92643929,-103.6200409,5525.367676,6/18/2018
42-301-34030-0000,SID M. KYLE 26 C002,OIL,Active,HORIZONTAL,9/1/2018,99970,202374,470295,31.92643929,-103.6202011,5561.524902,7/25/2018
42-301-34005-0000,MCGREGOR A UNIT 11H,OIL,Active,HORIZONTAL,3/1/2019,270,981,0,31.9112587,-103.532341,9984.106445,3/8/2019
42-301-33997-0000,SAGUARO 1 3,PERMIT,Active,VERTICAL,,,,,31.99288177,-103.5095367,180,7/7/2018
42-301-33993-0000,WAHOO 53-2-23 LOV UNIT 5H,PERMIT,,HORIZONTAL,,,,,31.83829308,-103.5151215,7445.016113,3/15/2019
42-301-34006-0000,MCGREGOR A UNIT 12H,PERMIT,,HORIZONTAL,3/1/2019,215,803,0,31.9112587,-103.5322342,9978.228516,9/21/2018
42-301-34004-0000,MCGREGOR B UNIT 10H,OIL,Active,HORIZONTAL,3/1/2019,115,555,0,31.9112606,-103.5355606,9984.297852,2/8/2019
42-301-34038-0000,GOODNIGHT UNIT 10H,PERMIT,,HORIZONTAL,2/1/2019,106111,196423,0,31.88484383,-103.5175629,10062.52441,8/31/2018
42-301-34000-0000,CHECKERS 14 2H,OIL,Active,HORIZONTAL,9/1/2018,74540,145424,328081,31.8008194,-103.4276047,4780.697754,5/16/2018
42-301-34039-0000,GOODNIGHT UNIT 11H,PERMIT,OPEN SHUT IN,HORIZONTAL,7/1/2018,4,63063,0,31.88484383,-103.5174561,10177.51855,7/14/2018
42-301-33992-0000,CROCKETT REESE STATE UNIT B 2412H,PERMIT,Active,HORIZONTAL,11/1/2018,6242,74277,34700,31.9437561,-103.4570541,7554.670898,5/28/2018
42-301-34016-0000,"JOHNSON, W.D. -16S- 3",PERMIT,Active,VERTICAL,11/1/2018,695,1303,0,31.84479332,-103.5500946,5299,7/6/2018
42-301-34013-0000,STATE 48 W6HN,PERMIT,Active,HORIZONTAL,11/1/2018,42039,80144,0,31.76616287,-103.5000687,5248.291016,7/9/2018
42-301-34015-0000,STATE 48 W8HN,PERMIT,Active,HORIZONTAL,11/1/2018,39629,75626,171115,31.76616478,-103.4999008,5300.079102,7/6/2018
42-301-34078-0000,RIFLE 21801 1H,PERMIT,,HORIZONTAL,,,,,31.75119972,-103.6628876,8258.053711,12/7/2018
42-301-34054-0000,CBR 18-19F 6H,PERMIT,OPEN SHUT IN,HORIZONTAL,,,,,31.97250557,-103.8941116,11165.53223,7/29/2018
42-301-34072-0000,BOYD 21 431H,PERMIT,OPEN SHUT IN,HORIZONTAL,1/1/2019,20977,46881,362040,31.77548218,-103.463501,4981.788086,7/23/2018
42-301-34059-0000,CBR 18-19G 7H,PERMIT,OPEN SHUT IN,HORIZONTAL,,,,,31.9724369,-103.8941116,11115.02832,7/31/2018
42-301-34032-0000,SEMINOLE STATE 56-2-25 UNIT 1H,PERMIT,Active,HORIZONTAL,12/1/2018,11541,36694,0,31.84099388,-103.8083267,11037.64941,6/18/2018
42-301-34040-0000,SID M. KYLE 26 D006,PERMIT,Active,HORIZONTAL,10/1/2018,139874,201502,830867,31.92643929,-103.6201172,5564.658691,7/7/2018
42-301-34050-0000,CBR 18-19I 9H,PERMIT,OPEN SHUT IN,HORIZONTAL,,,,,31.97229958,-103.8941116,11062.68945,8/4/2018
42-301-34061-0000,CBR 22-27A 1H,PERMIT,OPEN SHUT IN,HORIZONTAL,,,,,31.95713806,-103.8414459,10877.04297,6/28/2018
42-301-34026-0000,STATE ALOHA 55-T2-8X17 SA W105H,PERMIT,,HORIZONTAL,,,,,31.87018585,-103.7741699,11143.79395,11/16/2018
42-301-34060-0000,ROOSTERFISH 53-2-43 LOV UNIT 2H,PERMIT,Active,HORIZONTAL,,,,,31.76732254,-103.5839005,10317.02734,6/28/2018
42-301-33912-0000,WRANGLER B UNIT 1H,PERMIT,,HORIZONTAL,,,,,31.91344452,-103.5186462,9872.321289,3/8/2019
42-301-34047-0000,PECOS 39 PILOT 1,PERMIT,OPEN SHUT IN,VERTICAL,,,,,31.90529823,-103.8522186,4923,8/14/2018
42-301-34052-0000,REVOLVER 7507 E 12H,PERMIT,Active,HORIZONTAL,,,,,31.89925766,-103.3963318,5093.300781,10/12/2018
42-301-34036-0000,LONGHORN 55-1-30 UNIT 3H,PERMIT,,HORIZONTAL,,,,,31.93335915,-103.801651,8329.293945,4/12/2019
42-301-34028-0000,STATE ALOHA 55-T2-8X17 SA W108H,GAS,,HORIZONTAL,,,,,31.87015724,-103.7740555,11067.58594,10/12/2018
42-301-34063-0000,CBR 22-27C 3H,PERMIT,Active,HORIZONTAL,12/1/2018,106281,310797,0,31.95727539,-103.8414459,10902.62891,7/1/2018
42-301-34064-0000,TOTUM 18-TTT-C24 NL 226H,PERMIT,Active,HORIZONTAL,11/1/2018,46259,125129,377826,31.95197678,-103.3720398,4901.944824,7/1/2018
42-301-34071-0000,BOYD 21 331H,PERMIT,OPEN SHUT IN,HORIZONTAL,1/1/2019,24942,37840,175127,31.77554893,-103.4635239,5074.743652,7/26/2018
42-301-34053-0000,WOLF 80-TTT-B33-WF SA 206H,OIL,Active,HORIZONTAL,11/1/2018,85422,698898,0,31.68540955,-103.6114655,6960.255859,7/19/2018
42-301-34027-0000,STATE ALOHA 55-T2-8X17 SA W107H,GAS,,HORIZONTAL,,,,,31.87015724,-103.7741241,11051.79492,11/2/2018
42-301-34045-0000,SILVERTIP 76-9 UNIT E 6H,PERMIT,,HORIZONTAL,,,,,31.96816254,-103.5591278,11594.11621,5/17/2019
42-301-34068-0000,LUDEMAN 2512-D 4H,PERMIT,,HORIZONTAL,,,,,31.91539383,-103.4010391,7404.380859,12/17/2018
42-301-34049-0000,CBR 18-19H 8H,PERMIT,OPEN SHUT IN,HORIZONTAL,,,,,31.97236824,-103.8941116,11080.99121,8/2/2018
42-301-34067-0000,LUDEMAN 2512-C 3H,PERMIT,,HORIZONTAL,,,,,31.91542816,-103.4009171,7389.435547,12/17/2018
42-301-34065-0000,LUDEMAN 2512-A 1H,PERMIT,,HORIZONTAL,,,,,31.91596603,-103.3996353,7324.458984,3/8/2019
42-301-34048-0000,SILVERTIP 76-9 UNIT E 8H,PERMIT,OPEN SHUT IN,HORIZONTAL,,,,,31.96816254,-103.5589371,11610.89453,8/14/2018
42-301-34062-0000,CBR 22-27B 2H,PERMIT,OPEN SHUT IN,HORIZONTAL,,,,,31.95720673,-103.8414459,10850.98926,6/29/2018
42-301-34037-0000,ASPEN 55-1-30 UNIT 3H,PERMIT,,HORIZONTAL,2/1/2019,25276,102404,0,31.9355545,-103.8022537,8361.111328,7/20/2018
42-301-34101-0000,LINDSAY 10-15Q-55-1 404H,,,HORIZONTAL,,,,,31.95819092,-103.7402649,7471.058594,6/7/2019
42-301-34122-0000,ROCKET 8-421H,OIL,Active,HORIZONTAL,3/1/2019,8961,18851,0,31.96003914,-103.3424606,4870.105469,1/1/2019
42-301-34094-0000,CROCKETT REESE STATE A,PERMIT,,HORIZONTAL,2/1/2019,19668,38552,0,31.94706154,-103.4469833,7553.486328,11/16/2018
42-301-34117-0000,RUSTLER D UNIT 5H,PERMIT,,HORIZONTAL,,,,,31.92553902,-103.5113297,4574.981445,11/16/2018
42-301-34115-0000,LINDSAY 15 426H,,,HORIZONTAL,,,,,31.95804214,-103.7392731,4643.048828,4/26/2019
42-301-34095-0000,CROCKETT REESE STATE B,PERMIT,,HORIZONTAL,2/1/2019,21828,38443,0,31.94702721,-103.4471054,7552.132324,11/23/2018
42-301-34082-0000,ROAN 53-2 LOV UNIT 2010H,PERMIT,Active,HORIZONTAL,,,,,31.83111382,-103.5779037,8155.205566,11/17/2018
42-301-34112-0000,JUDGE 3 W8HN,,OPEN SHUT IN,HORIZONTAL,,,,,31.75287247,-103.4996567,4971.916992,9/2/2018
42-301-34111-0000,HICKORY 55-2-1 UNIT 6H,PERMIT,,HORIZONTAL,,,,,31.89990616,-103.7167053,11274.44531,4/12/2019
42-301-34091-0000,LINK VJ RANCH 26-23 F 6H,PERMIT,,HORIZONTAL,2/1/2019,57029,184414,0,31.81102562,-103.7228699,7678.73584,9/21/2018
42-301-33999-0000,REVOLVER 7504 W,PERMIT,Active,HORIZONTAL,12/1/2018,48546,73867,0,31.92341805,-103.3638,7517.919434,7/18/2018
42-301-34081-0000,ROAN 53-2 LOV UNIT 2009H,PERMIT,Active,HORIZONTAL,,,,,31.83111954,-103.5780029,8229.639648,11/21/2018
42-301-34097-0000,ALLEN 55-2-44 LOV UNIT 2H,PERMIT,Active,HORIZONTAL,,,,,31.7803936,-103.783699,6274.866211,10/16/2018
42-301-34105-0000,LINDSAY 10-15 55-I 414,OIL,Active,HORIZONTAL,2/1/2019,45975,169708,0,31.95813751,-103.7417221,7424.495605,9/18/2018
42-301-34093-0000,RIFLE 21801 3H,PERMIT,,HORIZONTAL,,,,,31.75057793,-103.663353,8254.920898,12/21/2018
42-301-34106-0000,LINDSAY 10-15K-55-1 402H,PERMIT,OPEN SHUT IN,HORIZONTAL,2/1/2019,21707,88260,0,31.95827293,-103.7417145,7375.874512,9/16/2018
42-301-34114-0000,CBR 41-44H 4HR,PERMIT,OPEN SHUT IN,HORIZONTAL,1/1/2019,60028,282612,0,31.91331673,-103.8845062,10775.49512,9/21/2018
42-301-34090-0000,LINK VJ RANCH 26-23 E 5H,PERMIT,,HORIZONTAL,2/1/2019,60522,200260,0,31.81104279,-103.7283554,7688.549805,10/19/2018
42-301-34092-0000,LINK VJ RANCH 26-23 G 7H,PERMIT,,HORIZONTAL,2/1/2019,51808,173675,0,31.8111515,-103.7215881,7635.247559,8/31/2018
42-301-34104-0000,LINDSAY 10-15 55-I 424,PERMIT,Active,HORIZONTAL,2/1/2019,32155,151636,0,31.95806694,-103.7417221,7450.84375,9/18/2018
42-301-34087-0000,LINK VJ RANCH 26-23 B 2H,PERMIT,,HORIZONTAL,2/1/2019,14493,47024,0,31.81180382,-103.7345123,7418.054688,9/7/2018
42-301-34102-0000,LINDSAY 10-15M-55-1 415H,PERMIT,,HORIZONTAL,,,,,31.95812225,-103.7402649,7451.241211,5/10/2019
42-301-34118-0000,CARDINAL 4 P2H,PERMIT,Active,HORIZONTAL,10/1/2018,33212,93622,221706,31.75546074,-103.6067734,5778.437988,8/8/2018
42-301-34126-0000,Z&T 32 G003,PERMIT,Active,HORIZONTAL,12/1/2018,8699,37597,48370,31.92658997,-103.670723,5095.931641,9/16/2018
42-301-34124-0000,Z&T 32 E001,PERMIT,Active,HORIZONTAL,11/1/2018,8783,38245,44361,31.92658997,-103.6709595,5181.150391,8/18/2018
42-301-34125-0000,Z&T 32 F002,PERMIT,Active,HORIZONTAL,12/1/2018,8699,37597,43937,31.92658997,-103.6707993,5072.910645,9/11/2018
42-301-34073-0000,ST. HELENS 75-32 UNIT 1H,PERMIT,,HORIZONTAL,,,,,31.86870766,-103.3469086,4754.333008,12/14/2018
42-301-34129-0000,CBR 33-28B-56-1 422H,PERMIT,OPEN SHUT IN,HORIZONTAL,,,,,31.91159439,-103.8712845,10873.33301,12/7/2018
42-301-34128-0000,CBR 33-28A-56-1 401H,PERMIT,OPEN SHUT IN,HORIZONTAL,,,,,31.91166306,-103.8712845,10848.30176,12/3/2018
42-301-34132-0000,CBR 33-28F-56-1 431H,PERMIT,OPEN SHUT IN,HORIZONTAL,,,,,31.91159058,-103.870285,10878.11621,11/8/2018
42-301-34131-0000,CBR 33-28C-56-1 412H,PERMIT,OPEN SHUT IN,HORIZONTAL,,,,,31.91165924,-103.870285,10853.0918,11/21/2018
42-301-34130-0000,CBR 33-28D-56-1 402H,PERMIT,OPEN SHUT IN,HORIZONTAL,,,,,31.91172791,-103.870285,10854.7998,12/3/2018
42-301-34135-0000,BRUNSON TRUST 16 3H,PERMIT,,HORIZONTAL,,,,,31.96123123,-103.4479294,4782.743164,3/8/2019
42-301-34138-0000,MCLOVIN SWD 1,PERMIT,Active,HORIZONTAL,,,,,31.99720192,-103.7707748,,12/5/2018
42-301-34144-0000,BOXWOOD 55-1-12 UNIT 5PH,,,VERTICAL,,,,,31.97006416,-103.7050552,,12/21/2018
42-301-34147-0000,HOPPER 21801 SWD 1,PERMIT,Active,VERTICAL,,,,,31.76558876,-103.6589432,,3/12/2019
42-301-34137-0000,WAHOO 53-2-23 LOV UNIT 8H,PERMIT,,HORIZONTAL,,,,,31.838377,-103.5151138,7482.021973,11/16/2018
42-301-34143-0000,HERON 54-2-4 UNIT 4H,PERMIT,,HORIZONTAL,,,,,31.8843956,-103.666153,10975.24023,4/12/2019
42-301-33970-0000,HUGHES & TALBOT 75-24 UNIT 3H,PERMIT,,HORIZONTAL,3/1/2019,21621,28201,0,31.89013863,-103.3722916,4832.730469,11/16/2018
42-301-34149-0000,REVOLVER C 402H,,,HORIZONTAL,,,,,31.92411804,-103.3613663,7449.520996,3/8/2019
42-301-34150-0000,SID M. KYLE 26 A001,,,HORIZONTAL,,,,,31.92794609,-103.6291504,5005.989746,10/15/2018
42-301-34156-0000,NEELIE 1-85 LOV 4H,,,HORIZONTAL,,,,,31.72870255,-103.5812836,4216.07666,2/10/2019
42-301-34154-0000,NEELIE 1-85 LOV 2H,PERMIT,,HORIZONTAL,,,,,31.72886086,-103.5813446,4222.436523,2/2/2019
42-301-34159-0000,OUTLAW SWD-44- 5,INJECTION,Active,VERTICAL,,,,,31.89503098,-103.6825027,,11/29/2018
42-301-34158-0000,OUTLAW SWD-44- 4,INJECTION,Active,VERTICAL,,,,,31.89056396,-103.6755753,,12/13/2018
42-301-34160-0000,OUTLAW SWD-44- 6,PERMIT,Active,VERTICAL,,,,,31.89741325,-103.6679611,,11/12/2018
42-301-34163-0000,JONES RANCH SWD 1,INJECTION,Active,VERTICAL,,,,,31.7337265,-103.6071777,,11/18/2018
42-301-34164-0000,ROCAZOLLER STATE 54-1-12 LOV 10H,OIL,Active,HORIZONTAL,,,,,31.97179031,-103.6029282,4804.734863,11/17/2018
42-301-34170-0000,STATE ATLANTIS 7 UNIT 4H,OIL,Active,HORIZONTAL,2/1/2019,102821,289391,0,31.9556427,-103.6604462,10788.91309,10/31/2018
42-301-34173-0000,BILLY DIXON UNIT 6H,,,HORIZONTAL,,,,,31.99201775,-103.4510727,7701.785156,11/9/2018
42-301-34174-0000,BILLY DIXON UNIT 7H,,,HORIZONTAL,,,,,31.99201584,-103.4511795,7749.965332,11/8/2018
42-301-34175-0000,NORTH RUDD DRAW 22 2H,,OPEN SHUT IN,HORIZONTAL,,,,,31.86113167,-103.4780426,6008.450684,1/20/2019
42-301-34169-0000,STATE ATLANTIS 7 UNIT 3H,OIL,Active,HORIZONTAL,2/1/2019,118411,338473,0,31.9556427,-103.660553,10799.11816,11/23/2018
42-301-34168-0000,STATE ATLANTIS 7 UNIT 2H,OIL,Active,HORIZONTAL,2/1/2019,150349,416589,0,31.95562744,-103.6647873,10799.4209,12/14/2018
42-301-34167-0000,STATE ATLANTIS 7 UNIT 1H,OIL,Active,HORIZONTAL,2/1/2019,162069,413780,0,31.95562744,-103.6648941,10794.32031,10/30/2018
42-301-34171-0000,STATE ATLANTIS 7 UNIT 5H,OIL,Active,HORIZONTAL,2/1/2019,105949,288419,0,31.9556427,-103.6603394,10798.41406,11/1/2018
42-301-34197-0000,SCRAPFILE NORTH 1H,,,HORIZONTAL,,,,,31.91207886,-103.4936218,10236.15625,2/8/2019
42-301-34198-0000,SCRAPFILE SOUTH 1H,,,HORIZONTAL,,,,,31.91189575,-103.4936218,7660.650391,3/8/2019
42-301-34210-0000,WEBER 26 E011,,,HORIZONTAL,,,,,31.83047104,-103.4858856,5524.367188,2/8/2019
42-301-34166-0000,SHARP NOSE STATE,PERMIT,,HORIZONTAL,3/1/2019,41061,95500,0,31.98378372,-103.3678894,6194.129883,10/29/2018
42-301-34186-0000,QUANAH PARKER B UNIT 4H,,,HORIZONTAL,,,,,31.96561241,-103.4367065,10639.82324,12/1/2018
42-301-34203-0000,YELLOW ROSE A UNIT 3H,,,HORIZONTAL,,,,,31.92201424,-103.4827576,10329.97363,5/10/2019
42-301-34194-0000,VOYAGER W 12H,OIL,Active,HORIZONTAL,1/1/2019,78003,172370,0,31.95695496,-103.6375961,4999.056641,12/14/2018
42-301-34165-0000,SHARP NOSE STATE 1450H,PERMIT,,HORIZONTAL,,,,,31.98374939,-103.3680115,6192.189453,11/23/2018
42-301-34212-0000,EL PATRON UNIT 11H,,,HORIZONTAL,,,,,31.9479332,-103.4511337,10127.11621,3/8/2019
